City_ID,City,Country,Lat,Lng,Max Temp,Humidity,Cloudiness,Wind Speed,Current Description
0,Roros,NO,62.5747,11.3842,46.24,93,75,3.44,light rain
1,Avera,US,33.194,-82.5271,86.05,64,94,7.67,overcast clouds
2,Bluff,NZ,-46.6,168.3333,47.8,73,99,21.81,overcast clouds
3,General Pico,AR,-35.6566,-63.7568,44.08,70,36,6.08,scattered clouds
4,San Juan Ixcoy,GT,15.5997,-91.4453,59.85,94,100,5.01,overcast clouds
5,Narsaq,GL,60.9167,-46.05,41.22,68,2,1.03,clear sky
6,Punta Arenas,CL,-53.15,-70.9167,42.91,56,75,9.22,broken clouds
7,Villa Carlos Paz,AR,-31.4241,-64.4978,47.39,44,100,3.02,overcast clouds
8,Arraial Do Cabo,BR,-22.9661,-42.0278,62.46,88,40,5.75,scattered clouds
9,Champerico,GT,14.3,-91.9167,78.96,83,98,8.05,overcast clouds
10,Jamsa,FI,61.8642,25.19,52.52,83,49,11.36,scattered clouds
11,Kahului,US,20.8947,-156.47,82.42,74,0,20.71,clear sky
12,Pallasovka,RU,50.05,46.8833,71.38,47,97,4.76,overcast clouds
13,Bathsheba,BB,13.2167,-59.5167,83.01,83,40,19.57,scattered clouds
14,Bethel,US,41.3712,-73.414,67.35,85,40,3.44,scattered clouds
15,Bambous Virieux,MU,-20.3428,57.7575,73.22,78,20,11.5,light rain
16,Puerto Ayora,EC,-0.7393,-90.3518,71.55,92,13,4.0,few clouds
17,Dingle,PH,10.9995,122.6711,87.89,65,75,6.87,broken clouds
18,New Norfolk,AU,-42.7826,147.0587,53.1,71,60,0.89,broken clouds
19,Saint-Philippe,RE,-21.3585,55.7679,69.39,81,72,17.09,light rain
20,Barinas,VE,8.6226,-70.2075,66.24,100,98,1.14,overcast clouds
21,Kapaa,US,22.0752,-159.319,82.38,84,75,17.27,broken clouds
22,Homer,US,59.6425,-151.5483,61.77,63,0,16.11,clear sky
23,Port Alfred,ZA,-33.5906,26.891,48.18,72,38,5.01,scattered clouds
24,Provideniya,RU,64.3833,-173.3,39.36,100,100,20.13,fog
25,Chifeng,CN,42.2683,118.9636,80.82,30,9,1.68,clear sky
26,Khovu-Aksy,RU,51.1333,93.6,71.47,46,68,2.19,broken clouds
27,Nicoya,CR,10.1483,-85.452,72.54,95,100,1.57,overcast clouds
28,Manzhouli,CN,49.6,117.4333,72.54,45,0,2.59,clear sky
29,Mataura,NZ,-46.1927,168.8643,47.48,96,100,6.98,light rain
30,Qaanaaq,GL,77.484,-69.3632,24.08,79,19,5.61,few clouds
31,Hovd,MN,48.0056,91.6419,75.72,25,59,4.14,light rain
32,Busselton,AU,-33.65,115.3333,65.79,74,42,16.55,scattered clouds
33,Erzin,TR,36.9559,36.2,69.96,85,3,1.72,clear sky
34,Sitka,US,57.0531,-135.33,62.49,59,0,10.36,clear sky
35,Nikolskoye,RU,59.7035,30.7861,55.8,90,16,10.29,few clouds
36,Sisophon,KH,13.5859,102.9737,87.71,58,100,4.03,overcast clouds
37,Kavaratti,IN,10.5669,72.642,83.3,75,100,14.88,moderate rain
38,Thaba-Tseka,LS,-29.522,28.6084,24.73,72,3,0.92,clear sky
39,Bridgetown,BB,13.1,-59.6167,82.89,83,40,19.57,scattered clouds
40,Aligudarz,IR,33.4006,49.6949,66.16,21,0,2.13,clear sky
41,Ostrovnoy,RU,68.0531,39.5131,45.21,82,100,16.08,overcast clouds
42,Shelburne,CA,44.0787,-80.2041,70.59,90,23,8.52,few clouds
43,Nanortalik,GL,60.1432,-45.2371,37.4,85,4,8.32,clear sky
44,Cherskiy,RU,68.75,161.3,62.67,20,11,8.95,few clouds
45,Saint-Pierre,RE,-21.3393,55.4781,71.91,73,0,6.91,clear sky
46,Kuching,MY,1.55,110.3333,79.02,94,40,5.01,light rain
47,San Patricio,US,28.017,-97.5169,84.09,80,100,15.5,overcast clouds
48,Sao Filipe,CV,14.8961,-24.4956,72.45,87,74,7.31,broken clouds
49,Asau,RO,46.4333,26.4,52.72,89,47,2.51,scattered clouds
50,Tiksi,RU,71.6872,128.8694,37.36,72,11,11.27,few clouds
51,Margate,GB,51.3813,1.3862,58.3,85,17,0.49,few clouds
52,Tierra Blanca,HN,14.5833,-88.5833,67.51,98,100,1.97,overcast clouds
53,Cape Town,ZA,-33.9258,18.4232,55.38,73,49,3.31,scattered clouds
54,Cockburn Town,TC,21.4612,-71.1419,81.3,82,18,18.81,few clouds
55,Hamilton,US,39.1834,-84.5333,84.99,73,0,9.22,clear sky
56,Kaitangata,NZ,-46.2817,169.8464,46.63,91,99,11.5,overcast clouds
57,Carnarvon,AU,-24.8667,113.6333,72.95,78,92,2.91,overcast clouds
58,Albany,US,42.6001,-73.9662,73.81,71,98,1.01,overcast clouds
59,Iqaluit,CA,63.7506,-68.5145,43.7,93,100,17.27,light rain
60,Port Elizabeth,ZA,-33.918,25.5701,48.09,81,0,9.22,clear sky
61,Fairhope,US,30.523,-87.9033,85.75,71,0,5.99,clear sky
62,Angoram,PG,-4.0625,144.0661,91.17,52,97,3.65,overcast clouds
63,Pevek,RU,69.7008,170.3133,35.2,80,16,8.39,few clouds
64,Vardo,NO,70.3705,31.1107,40.98,93,100,18.41,drizzle
65,Hobart,AU,-42.8794,147.3294,53.46,85,40,8.05,scattered clouds
66,Kashi,CN,39.4547,75.9797,81.61,17,20,22.37,few clouds
67,Port Hardy,CA,50.6996,-127.4199,51.66,94,100,7.81,light rain
68,Ushuaia,AR,-54.8,-68.3,46.06,46,75,12.66,broken clouds
69,Lebu,CL,-37.6167,-73.65,49.14,89,63,8.25,broken clouds
70,Upernavik,GL,72.7868,-56.1549,30.27,71,100,6.33,overcast clouds
71,Hermanus,ZA,-34.4187,19.2345,44.8,73,62,8.19,broken clouds
72,Sardarshahr,IN,28.4333,74.4833,94.14,41,0,19.82,clear sky
73,Avarua,CK,-21.2078,-159.775,80.65,69,40,12.66,scattered clouds
74,Half Moon Bay,US,37.4636,-122.4286,66.88,69,100,23.02,mist
75,Husavik,IS,66.0449,-17.3389,46.67,94,95,1.74,overcast clouds
76,Ribeira Grande,PT,38.5167,-28.7,64.85,91,26,4.23,scattered clouds
77,Kargil,IN,34.5667,76.1,56.03,38,72,6.35,broken clouds
78,Melo,UY,-32.3667,-54.1833,50.9,89,93,3.42,overcast clouds
79,Bredasdorp,ZA,-34.5322,20.0403,44.44,82,21,4.72,few clouds
80,Grand Forks,US,47.9417,-97.4337,62.33,77,100,25.32,haze
81,Yellowknife,CA,62.456,-114.3525,58.75,74,100,5.1,overcast clouds
82,Liverpool,GB,53.4106,-2.9779,53.62,84,48,2.3,scattered clouds
83,Dibulla,CO,11.2725,-73.3091,77.95,84,100,2.98,overcast clouds
84,Rikitea,PF,-23.1203,-134.9692,72.86,67,100,8.3,overcast clouds
85,Mount Gambier,AU,-37.8333,140.7667,56.82,77,73,7.9,broken clouds
86,Cabo San Lucas,MX,22.8909,-109.9124,87.1,71,33,13.51,scattered clouds
87,Souillac,MU,-20.5167,57.5167,71.98,78,20,11.5,few clouds
88,Norman Wells,CA,65.282,-126.8329,59.04,55,40,4.61,scattered clouds
89,Beidao,CN,34.5686,105.8933,83.25,35,36,13.33,scattered clouds
90,Sacramento,US,38.4666,-121.3177,85.32,31,0,16.11,clear sky
91,Ler,SS,8.3018,30.1418,70.54,83,97,3.18,overcast clouds
92,Iskateley,RU,67.6803,53.1512,51.69,58,96,10.92,overcast clouds
93,Batouri,CM,4.4333,14.3667,66.76,99,99,0.63,light rain
94,Atuona,PF,-9.8,-139.0333,77.86,70,77,19.19,broken clouds
95,Ancud,CL,-41.8697,-73.8203,46.22,90,78,4.32,broken clouds
96,Waki,JP,34.0667,134.15,79.02,71,100,1.52,overcast clouds
97,Marovoay,MG,-16.1,46.6333,71.08,78,59,2.33,broken clouds
98,Ahipara,NZ,-35.1667,173.1667,60.8,65,2,7.54,clear sky
99,Petropavlovsk-Kamchatskiy,RU,53.0452,158.6483,48.79,81,75,17.9,broken clouds
100,Ewa Beach,US,21.3156,-158.0072,80.55,75,40,10.36,scattered clouds
101,Plettenberg Bay,ZA,-34.0527,23.3716,48.69,73,5,5.17,clear sky
102,Sijunjung,ID,-0.6876,100.9537,82.9,66,84,0.27,broken clouds
103,Hasaki,JP,35.7333,140.8333,73.29,82,100,11.45,light rain
104,Shimoda,JP,34.6667,138.95,77.36,79,100,16.89,overcast clouds
105,Jamestown,US,42.097,-79.2353,78.06,89,71,4.59,broken clouds
106,Hispania,CO,5.7993,-75.9072,67.86,99,99,1.86,overcast clouds
107,Barrow,US,71.2906,-156.7887,39.22,81,40,11.5,scattered clouds
108,Saint-Leu,RE,-21.15,55.2833,71.31,77,41,1.77,scattered clouds
109,Vila Velha,BR,-20.3297,-40.2925,64.94,91,40,2.3,scattered clouds
110,Ikryanoye,RU,46.0932,47.7308,76.98,49,100,12.35,overcast clouds
111,Hithadhoo,MV,-0.6,73.0833,81.64,73,96,3.87,overcast clouds
112,Namanga,KE,-2.5433,36.7905,59.86,88,79,2.26,broken clouds
113,Codrington,AU,-38.2667,141.9667,57.99,80,45,16.02,scattered clouds
114,Port Macquarie,AU,-31.4333,152.9167,71.89,43,0,1.25,clear sky
115,Rio Grande,BR,-32.035,-52.0986,54.77,84,78,7.63,broken clouds
116,Fortuna,US,40.5982,-124.1573,59.94,75,73,3.53,broken clouds
117,Bambanglipuro,ID,-7.95,110.2833,84.15,69,45,3.15,scattered clouds
118,Parati,BR,-23.2178,-44.7131,60.76,87,4,3.83,clear sky
119,Vaini,TO,-21.2,-175.2,78.96,78,75,5.75,broken clouds
120,Minatitlan,MX,17.9833,-94.5167,76.53,91,88,7.25,overcast clouds
121,Inta,RU,66.0317,60.1659,54.91,61,0,7.07,clear sky
122,Vagay,RU,57.9375,69.0217,62.38,76,60,6.46,broken clouds
123,Longyearbyen,SJ,78.2186,15.6401,39.04,75,75,12.66,broken clouds
124,Talara,PE,-4.5772,-81.2719,65.48,76,2,18.79,clear sky
125,Aksu,CN,41.1231,80.2644,85.91,17,100,5.97,overcast clouds
126,Hami,CN,42.8,93.45,96.49,13,0,1.36,clear sky
127,Cap-Aux-Meules,CA,47.3821,-61.8597,53.62,82,0,3.44,clear sky
128,East London,ZA,-33.0153,27.9116,52.74,54,0,14.97,clear sky
129,Maceio,BR,-9.6658,-35.7353,72.84,94,75,10.36,light intensity drizzle
130,San Vicente,AR,-26.6167,-54.1333,51.84,98,0,2.84,clear sky
131,Sakaiminato,JP,35.55,133.2333,82.38,57,20,18.41,few clouds
132,Saldanha,ZA,-33.0117,17.9442,50.5,70,11,6.71,few clouds
133,Lira,UG,2.235,32.9097,62.83,95,71,0.89,broken clouds
134,Wanaka,NZ,-44.7,169.15,43.52,95,92,5.79,light rain
135,Kavieng,PG,-2.5744,150.7967,84.81,69,68,12.44,broken clouds
136,Airai,TL,-8.9266,125.4092,71.67,53,62,5.28,broken clouds
137,Deep River,CA,46.1001,-77.4995,67.95,72,97,9.89,overcast clouds
138,Kissidougou,GN,9.1848,-10.0999,69.35,98,100,3.0,light rain
139,Ust-Tsilma,RU,65.441,52.1498,58.91,60,99,9.86,overcast clouds
140,Butaritari,KI,3.0707,172.7902,82.31,72,25,12.08,scattered clouds
141,Isangel,VU,-19.55,169.2667,82.51,78,40,4.61,scattered clouds
142,Saint-Augustin,CA,51.226,-58.6502,49.19,83,14,5.41,few clouds
143,Pangnirtung,CA,66.1451,-65.7125,36.68,99,100,4.27,overcast clouds
144,Laguna,US,38.421,-121.4238,85.44,32,0,16.11,clear sky
145,Dikson,RU,73.5069,80.5464,35.87,85,70,6.46,broken clouds
146,Fougamou,GA,-1.2154,10.5838,70.52,97,77,0.83,broken clouds
147,Araouane,ML,18.9048,-3.5265,90.55,26,10,11.16,clear sky
148,Muroto,JP,33.2833,134.15,73.53,87,100,16.93,overcast clouds
149,Lavrentiya,RU,65.5833,-171.0,39.36,95,100,15.93,overcast clouds
150,Lafiagi,NG,8.8667,5.4167,73.15,99,100,3.44,very heavy rain
151,San Andres,CO,12.5847,-81.7006,80.62,83,100,6.91,overcast clouds
152,Los Llanos De Aridane,ES,28.6585,-17.9182,64.15,84,40,5.99,scattered clouds
153,Luorong,CN,24.4058,109.6086,77.16,91,100,1.77,overcast clouds
154,Tasiilaq,GL,65.6145,-37.6368,39.36,97,100,8.39,overcast clouds
155,Georgetown,MY,5.4112,100.3354,85.93,78,20,6.91,few clouds
156,Chokurdakh,RU,70.6333,147.9167,68.41,24,95,7.45,overcast clouds
157,Sur,OM,22.5667,59.5289,89.29,58,9,6.35,clear sky
158,Baruun-Urt,MN,46.6806,113.2792,75.11,36,98,10.0,overcast clouds
159,Thinadhoo,MV,0.5333,72.9333,83.25,69,88,4.7,overcast clouds
160,Payakumbuh,ID,-0.2202,100.6308,83.14,58,73,1.43,broken clouds
161,Bastia,FR,42.6667,9.3333,72.3,78,0,3.44,clear sky
162,New Richmond,US,45.123,-92.5366,67.71,82,0,8.05,clear sky
163,Mackay,AU,-21.15,149.2,79.68,74,0,14.29,clear sky
164,Harper,LR,4.375,-7.7169,74.84,95,100,9.73,heavy intensity rain
165,Opuwo,NA,-18.0607,13.84,54.57,41,2,6.26,clear sky
166,Kananga,CD,-5.8958,22.4178,67.62,54,70,2.95,broken clouds
167,Aurora,US,39.7294,-104.8319,76.68,21,0,6.91,clear sky
168,Faanui,PF,-16.4833,-151.75,80.71,71,10,16.6,clear sky
169,Reconquista,AR,-29.15,-59.65,56.21,89,100,5.66,overcast clouds
170,Moyamba,SL,8.1667,-12.4333,73.17,98,100,2.13,overcast clouds
171,Edirne,TR,41.6772,26.556,56.8,76,59,5.19,broken clouds
172,Lata,PT,40.1629,-8.3327,60.55,98,50,2.59,scattered clouds
173,Hirtshals,DK,57.5881,9.9592,55.45,82,50,18.16,scattered clouds
174,Sobolevo,RU,54.4299,31.8996,48.72,93,0,7.02,clear sky
175,Darhan,MN,49.4867,105.9228,73.44,62,100,6.91,overcast clouds
176,Port Keats,AU,-14.25,129.55,88.14,20,74,10.8,broken clouds
177,Emba,KZ,48.8264,58.1442,75.69,29,9,5.99,clear sky
178,Birao,CF,10.2849,22.7882,72.84,81,100,5.44,overcast clouds
179,Karratha,AU,-20.7377,116.8463,81.41,29,65,13.24,broken clouds
180,Kenai,US,60.5544,-151.2583,65.03,66,0,14.97,clear sky
181,Clyde River,CA,70.4692,-68.5914,32.23,93,100,28.77,light snow
182,Tamiahua,MX,21.2667,-97.45,80.08,83,98,13.6,overcast clouds
183,Khatanga,RU,71.9667,102.5,68.86,32,65,9.69,broken clouds
184,San Cristobal,VE,7.7669,-72.225,68.18,97,100,2.93,overcast clouds
185,Lucea,JM,18.451,-78.1736,78.66,81,98,12.15,overcast clouds
186,Lasa,IT,46.6166,10.7002,63.48,74,5,4.45,clear sky
187,Tucurui,BR,-3.7661,-49.6725,71.19,82,24,2.73,few clouds
188,Adrar,MR,20.5022,-10.0711,88.38,30,20,10.09,few clouds
189,Torbay,CA,47.6666,-52.7314,39.97,81,20,5.01,few clouds
190,Talnakh,RU,69.4865,88.3972,69.21,41,100,7.72,overcast clouds
191,Kodiak,US,57.79,-152.4072,53.11,82,100,4.61,overcast clouds
192,Lumphat,KH,13.4878,106.9816,87.35,68,97,2.46,overcast clouds
193,Hilo,US,19.7297,-155.09,78.53,75,20,6.91,few clouds
194,Paramonga,PE,-10.6667,-77.8333,61.34,83,27,12.8,scattered clouds
195,Alberton,CA,46.8168,-64.0654,60.71,83,0,8.21,clear sky
196,Nyimba,ZM,-14.5566,30.8149,59.38,60,0,2.37,clear sky
197,Presidente Medici,BR,-11.1753,-61.9014,76.44,71,94,0.27,overcast clouds
198,Maltahohe,NA,-24.8333,16.9833,37.45,61,1,6.64,clear sky
199,Kendari,ID,-3.945,122.4989,81.77,79,81,2.01,broken clouds
200,Beringovskiy,RU,63.05,179.3167,45.72,73,100,19.77,overcast clouds
201,Pisco,PE,-13.7,-76.2167,59.02,82,20,3.44,smoke
202,Bengkulu,ID,-3.8004,102.2655,82.54,68,98,1.05,overcast clouds
203,Sinjar,IQ,36.3209,41.8754,78.26,38,0,6.67,clear sky
204,Nouadhibou,MR,20.931,-17.0347,65.68,86,0,22.41,clear sky
205,Asfi,MA,32.2994,-9.2372,66.79,81,35,9.86,scattered clouds
206,Mar Del Plata,AR,-38.0023,-57.5575,46.09,95,100,3.44,fog
207,Vanavara,RU,60.34,102.2797,76.37,47,99,5.5,overcast clouds
208,Inzer,RU,54.2167,57.5556,65.34,72,3,3.2,clear sky
209,Makinsk,KZ,52.6292,70.4169,63.28,67,32,11.39,scattered clouds
210,Castro,BR,-24.7911,-50.0119,50.81,91,13,2.95,few clouds
211,Guerrero Negro,MX,27.9769,-114.0611,63.23,83,0,16.26,clear sky
212,Killybegs,IE,54.6333,-8.45,54.88,92,100,7.18,overcast clouds
213,Mudu,CN,31.252,120.5118,86.88,52,0,7.07,clear sky
214,Mahebourg,MU,-20.4081,57.7,73.26,78,20,11.5,few clouds
215,Umm Lajj,SA,25.0213,37.2685,80.51,70,0,8.43,clear sky
216,Ilulissat,GL,69.2167,-51.1,37.42,70,0,1.14,clear sky
217,Lamu,KE,-2.2717,40.902,76.78,86,82,10.98,light rain
218,Saskylakh,RU,71.9167,114.0833,54.07,33,11,6.31,few clouds
219,Basco,PH,20.4487,121.9702,85.33,74,100,6.35,overcast clouds
220,Vestmannaeyjar,IS,63.4427,-20.2734,49.46,73,100,17.47,overcast clouds
221,Moerai,PF,-22.4333,-151.3333,75.94,65,99,11.43,overcast clouds
222,Sao Joao Da Barra,BR,-21.6403,-41.0511,65.1,81,60,3.94,broken clouds
223,Tefe,BR,-3.3542,-64.7114,71.64,99,65,1.43,broken clouds
224,Grand Gaube,MU,-20.0064,57.6608,73.38,63,0,7.0,clear sky
225,Boca Do Acre,BR,-8.7522,-67.3978,72.39,80,19,0.38,few clouds
226,Nador,MA,35.174,-2.9287,75.45,78,0,8.05,light rain
227,Eureka,US,40.8021,-124.1637,59.94,77,83,2.24,broken clouds
228,Cidreira,BR,-30.1811,-50.2056,57.6,85,3,5.35,clear sky
229,Hvolsvollur,IS,63.7533,-20.2243,46.65,73,100,11.43,overcast clouds
230,Novikovo,RU,51.1537,37.8879,56.7,82,96,6.71,overcast clouds
231,Orumiyeh,IR,37.5527,45.0761,60.35,59,0,6.91,clear sky
232,Siniscola,IT,40.5719,9.6922,65.75,58,20,2.73,few clouds
233,Nizhniy Kuranakh,RU,58.8353,125.4869,69.17,44,2,4.88,clear sky
234,Port Lincoln,AU,-34.7333,135.8667,61.77,58,4,7.07,clear sky
235,Freetown,SL,8.484,-13.2299,77.52,85,100,6.62,light rain
236,Lagoa,PT,39.05,-27.9833,63.23,92,12,8.5,few clouds
237,Vero Beach,US,27.6386,-80.3973,82.99,80,0,4.61,clear sky
238,Tigil,RU,57.8,158.6667,61.84,56,100,4.76,overcast clouds
239,Dogondoutchi,NE,13.6393,4.0287,86.43,51,100,8.68,overcast clouds
240,Qaqortoq,GL,60.7167,-46.0333,38.39,79,1,3.56,clear sky
241,Tuktoyaktuk,CA,69.4541,-133.0374,41.0,75,20,11.5,few clouds
242,Leningradskiy,RU,69.3833,178.4167,41.76,68,84,10.36,broken clouds
243,Cabedelo,BR,-6.9811,-34.8339,74.07,80,33,7.11,scattered clouds
244,Porto Novo,BJ,6.4965,2.6036,75.02,97,100,4.23,light rain
245,Esso,RU,55.9333,158.7,56.07,67,100,5.7,light rain
246,Shingu,JP,33.7333,135.9833,77.14,69,100,11.41,overcast clouds
247,Axim,GH,4.8699,-2.2405,73.56,98,100,9.66,very heavy rain
248,Thompson,CA,55.7435,-97.8558,62.76,59,75,6.91,broken clouds
249,Ponta Do Sol,PT,32.6667,-17.1,69.01,74,29,6.71,scattered clouds
250,Mezen,RU,65.8522,44.24,52.47,94,100,12.41,light rain
251,Yingcheng,CN,30.95,113.55,90.91,48,80,12.71,broken clouds
252,Mayumba,GA,-3.432,10.6554,71.37,89,18,4.61,few clouds
253,Imbituba,BR,-28.24,-48.6703,59.86,91,21,7.94,few clouds
254,Ust-Ishim,RU,57.6935,71.1665,61.0,73,95,7.61,overcast clouds
255,Haines Junction,CA,60.7522,-137.5108,62.55,48,95,8.05,overcast clouds
256,Severo-Kurilsk,RU,50.6789,156.125,50.18,79,99,7.72,overcast clouds
257,Katsuura,JP,35.1333,140.3,71.62,83,100,9.82,overcast clouds
258,Alugan,PH,12.2188,125.4808,86.2,66,25,7.63,scattered clouds
259,Suraabad,AZ,40.8192,49.4687,73.94,71,0,8.79,clear sky
260,Tual,ID,-5.6667,132.75,81.82,80,80,18.19,broken clouds
261,Manono,CD,-7.3,27.4167,69.71,50,3,3.94,clear sky
262,Kota Belud,MY,6.351,116.4305,87.48,59,97,3.78,overcast clouds
263,Chhabra,IN,24.6667,76.8333,78.46,84,100,13.0,overcast clouds
264,Ketchikan,US,55.3422,-131.6461,62.17,65,93,6.15,overcast clouds
265,Arman,RU,59.7,150.1667,53.02,91,100,5.01,overcast clouds
266,Estacion Coahuila,MX,32.1939,-115.0017,92.44,14,0,10.2,clear sky
267,Naze,JP,28.3667,129.4833,76.12,89,100,12.24,light rain
268,Mitsamiouli,KM,-11.3847,43.2844,77.54,76,5,5.23,clear sky
269,Grindavik,IS,63.8424,-22.4338,46.87,81,75,12.66,broken clouds
270,Karlskoga,SE,59.3267,14.5239,58.39,91,100,1.92,overcast clouds
271,Belmonte,BR,-15.8631,-38.8828,70.83,78,73,8.34,broken clouds
272,Ruteng,ID,-8.6136,120.4721,74.5,59,50,0.87,scattered clouds
273,Rawson,AR,-43.3002,-65.1023,46.72,75,19,11.68,few clouds
274,Zhigansk,RU,66.7697,123.3711,56.59,56,8,17.63,clear sky
275,Lensk,RU,60.7253,114.9278,80.76,24,27,4.9,scattered clouds
276,Touros,BR,-5.1989,-35.4608,74.16,83,18,9.19,few clouds
277,Taoudenni,ML,22.6783,-3.9836,94.14,10,0,8.79,clear sky
278,Carolina,PR,18.3808,-65.9574,82.29,91,40,6.91,scattered clouds
279,Svetlaya,RU,46.5389,138.3297,61.03,72,85,13.47,overcast clouds
280,Jumla,NP,29.2747,82.1838,70.25,43,0,5.61,clear sky
281,Dawson Creek,CA,55.7666,-120.2362,64.04,52,20,9.22,few clouds
282,Baiao,BR,-2.7906,-49.6717,69.75,80,55,2.06,broken clouds
283,Tagusao,PH,9.1924,117.8141,86.79,63,99,1.66,overcast clouds
284,Watertown,US,42.3709,-71.1828,64.35,73,0,6.91,clear sky
285,La Ronge,CA,55.1001,-105.2842,61.05,67,75,4.61,broken clouds
286,Quatre Cocos,MU,-20.2078,57.7625,73.09,75,6,14.03,light rain
287,Saint George,US,37.1041,-113.5841,93.79,6,0,4.61,clear sky
288,San Lorenzo,PY,-25.3333,-57.5333,68.94,64,75,8.05,broken clouds
289,Awbari,LY,26.5921,12.7805,74.88,24,0,8.81,clear sky
290,Key West,US,24.5557,-81.7826,87.8,73,0,13.8,clear sky
291,Takoradi,GH,4.8845,-1.7554,74.07,96,100,11.16,heavy intensity rain
292,Bairnsdale,AU,-37.8333,147.6167,58.95,70,93,9.06,overcast clouds
293,Vanimo,PG,-2.6741,141.3028,86.67,65,49,7.9,scattered clouds
294,Tilichiki,RU,60.4667,166.1,50.76,69,91,10.58,overcast clouds
295,Vilhena,BR,-12.7406,-60.1458,72.91,66,100,1.74,overcast clouds
296,Shagamu,NG,6.8432,3.6478,76.78,98,73,2.84,broken clouds
297,Caravelas,BR,-17.7125,-39.2481,68.04,75,37,4.85,scattered clouds
298,Bongandanga,CD,1.5,21.05,70.99,89,99,1.1,overcast clouds
299,Hastings,GB,50.8552,0.5729,59.52,79,37,3.62,scattered clouds
300,Buala,SB,-8.145,159.5921,82.72,75,85,8.99,light rain
301,Joao Pinheiro,BR,-17.7425,-46.1725,62.37,68,5,4.23,clear sky
302,Sinnamary,GF,5.3833,-52.95,76.33,86,90,6.24,overcast clouds
303,Hun,LY,29.1268,15.9477,71.73,57,0,4.54,clear sky
304,Grand-Santi,GF,4.25,-54.3833,70.92,99,37,1.9,scattered clouds
305,Khandyga,RU,62.6667,135.6,65.55,63,62,3.02,light rain
306,Goderich,CA,43.7501,-81.7165,84.52,61,58,16.11,broken clouds
307,Geraldton,AU,-28.7667,114.6,70.21,78,75,9.22,broken clouds
308,Sao Jose Da Coroa Grande,BR,-8.8978,-35.1478,75.0,89,50,10.0,light rain
309,Nome,US,64.5011,-165.4064,45.16,81,100,9.22,overcast clouds
310,Barra Patuca,HN,15.8,-84.2833,76.84,89,97,7.38,overcast clouds
311,Tapes,BR,-30.6733,-51.3958,54.9,84,36,2.66,scattered clouds
312,Paamiut,GL,61.994,-49.6678,36.61,87,3,14.85,clear sky
313,Broome,US,42.2506,-75.833,75.58,67,40,8.05,scattered clouds
314,Richards Bay,ZA,-28.783,32.0377,54.66,63,4,11.88,clear sky
315,Kijang,KR,35.2442,129.2139,78.53,60,0,11.34,clear sky
316,Ypsonas,CY,34.6884,32.9574,75.27,94,0,4.61,clear sky
317,Gopalganj,IN,26.4667,84.4333,95.59,43,10,3.78,clear sky
318,Saint Anthony,US,45.0205,-93.218,69.66,73,0,5.75,clear sky
319,Berlevag,NO,70.8578,29.0864,39.2,87,100,13.8,overcast clouds
320,Macheng,CN,31.1783,115.0319,90.12,52,45,8.14,scattered clouds
321,Mountain Home,US,43.133,-115.6912,69.28,23,0,12.66,clear sky
322,Port Blair,IN,11.6667,92.75,84.24,74,75,9.22,broken clouds
323,Mochudi,BW,-24.4167,26.15,34.39,55,0,6.24,clear sky
324,Ishinomaki,JP,38.4167,141.3,68.0,74,92,8.93,light rain
325,Barreirinha,BR,-2.7933,-57.07,71.83,98,65,2.93,broken clouds
326,Mykolayivka,UA,47.5414,30.7561,54.9,74,25,5.75,scattered clouds
327,Belaya Gora,RU,68.5333,146.4167,73.54,25,47,10.38,scattered clouds
328,Kulykiv,UA,50.3142,24.8176,48.67,91,13,4.23,few clouds
329,Kokopo,PG,-4.352,152.2633,85.28,64,46,6.46,scattered clouds
330,Andenes,NO,69.3143,16.1194,45.46,78,100,13.0,overcast clouds
331,Beroroha,MG,-21.6667,45.1667,61.63,73,8,1.21,clear sky
332,Princeton,US,25.5384,-80.4089,84.0,81,0,5.75,clear sky
333,Kasongo-Lunda,CD,-6.4667,16.8167,66.49,65,8,0.96,clear sky
334,Gavrilov Posad,RU,56.5597,40.1175,54.19,86,19,10.11,few clouds
335,Lappeenranta,FI,61.0587,28.1887,54.55,76,75,11.5,broken clouds
336,Sungaipenuh,ID,-2.0833,101.3833,72.0,86,86,1.19,overcast clouds
337,El Rosario,MX,24.2556,-107.1828,80.78,67,89,5.46,overcast clouds
338,Perevolotskiy,RU,51.8763,54.1938,68.54,55,5,2.37,clear sky
339,Makakilo City,US,21.3469,-158.0858,79.12,77,75,10.36,broken clouds
340,Zhuhai,CN,22.2769,113.5678,85.86,84,40,12.66,scattered clouds
341,Akdepe,TM,42.0551,59.3788,77.09,30,11,9.33,few clouds
342,Samarkand,UZ,39.6542,66.9597,80.02,34,0,11.5,clear sky
343,Zarate,AR,-34.0981,-59.0286,53.83,86,95,4.0,light rain
344,Baykit,RU,61.67,96.37,68.5,78,100,4.34,light rain
345,Aleksandrovskiy Zavod,RU,50.9237,117.9374,70.36,49,10,4.65,clear sky
346,Sfantu Gheorghe,RO,45.8667,25.7833,59.94,78,71,2.84,broken clouds
347,Inhambane,MZ,-23.865,35.3833,64.38,94,40,3.44,scattered clouds
348,Yulara,AU,-25.2406,130.9889,68.81,34,9,7.27,clear sky
349,Matagami,CA,49.7502,-77.6328,64.51,94,100,12.66,moderate rain
350,Shubarkuduk,KZ,49.1447,56.4872,73.27,39,50,4.74,scattered clouds
351,Honningsvag,NO,70.9821,25.9704,40.75,81,100,11.5,overcast clouds
352,Santa Rosa,PH,14.3122,121.1114,91.09,64,92,3.29,overcast clouds
353,Taltal,CL,-25.4,-70.4833,54.39,85,47,1.97,scattered clouds
354,Lashio,MM,22.9333,97.75,68.36,99,100,1.88,light rain
355,Faya,SA,18.3851,42.4509,68.11,21,49,2.98,scattered clouds
356,Bykovo,RU,55.6361,38.0803,57.61,77,0,4.47,clear sky
357,Kardymovo,RU,54.8902,32.4311,48.33,91,0,6.87,clear sky
358,La Libertad,EC,-2.2333,-80.9,70.9,80,32,11.79,scattered clouds
359,Paranaiba,BR,-19.6772,-51.1908,67.46,76,5,5.3,clear sky
360,Chulman,RU,56.8479,124.9104,64.04,45,60,6.87,broken clouds
361,Chuy,UY,-33.6971,-53.4616,51.8,84,87,5.41,overcast clouds
362,Cortez,US,37.3489,-108.5859,65.7,23,0,0.0,clear sky
363,Sola,VU,-13.8833,167.55,84.87,79,100,4.61,overcast clouds
364,Gambo,CF,4.6482,22.2633,68.45,99,100,1.28,overcast clouds
365,Esperance,AU,-33.8667,121.9,64.04,58,0,8.39,clear sky
366,Garowe,SO,8.4054,48.4845,75.78,62,58,22.17,broken clouds
367,Xuddur,SO,4.1213,43.8894,69.04,79,47,13.09,scattered clouds
368,Custodia,BR,-8.0875,-37.6431,66.09,95,100,10.54,overcast clouds
369,Ruski Krstur,RS,45.5628,19.4158,53.62,64,15,2.55,few clouds
370,Chernyshevskiy,RU,63.0128,112.4714,72.07,39,100,5.06,overcast clouds
371,Sorland,NO,67.667,12.6934,46.26,84,12,3.31,few clouds
372,Olafsvik,IS,64.8945,-23.7142,47.68,73,89,13.98,overcast clouds
373,Asosa,ET,10.0667,34.5333,61.09,96,100,2.44,light rain
374,Hobyo,SO,5.3505,48.5268,77.97,88,83,21.52,broken clouds
375,Severobaykalsk,RU,55.65,109.3167,63.27,57,11,1.43,few clouds
376,Palmer,US,42.1584,-72.3287,70.41,73,75,9.22,broken clouds
377,Marabba,SD,12.35,32.1833,79.63,52,100,12.1,overcast clouds
378,Montefiascone,IT,42.5393,12.0362,66.47,78,19,2.84,few clouds
379,Vila Franca Do Campo,PT,37.7167,-25.4333,63.19,88,77,8.55,broken clouds
380,Bourail,NC,-21.5667,165.4833,79.61,68,86,7.0,overcast clouds
381,Labuhan,ID,-6.8844,112.2051,84.99,72,65,10.69,broken clouds
382,Bahia Blanca,AR,-38.7196,-62.2724,45.55,91,0,2.98,clear sky
383,Namibe,AO,-15.1961,12.1522,63.64,70,13,2.71,few clouds
384,Yurimaguas,PE,-5.9,-76.0833,69.76,81,6,0.58,clear sky
385,Yerofey Pavlovich,RU,53.9667,121.9667,71.19,39,66,1.05,broken clouds
386,Hennebont,FR,47.8051,-3.2734,62.91,75,0,4.61,clear sky
387,Nampula,MZ,-15.1165,39.2666,66.15,100,75,8.05,mist
388,Odessa,UA,46.4775,30.7326,62.37,54,15,5.37,few clouds
389,Noumea,NC,-22.2763,166.4572,80.58,99,96,10.71,overcast clouds
390,Sao Geraldo Do Araguaia,BR,-6.4006,-48.555,73.49,76,47,1.59,scattered clouds
391,Sigli,ID,5.3848,95.9609,81.25,71,100,4.81,overcast clouds
392,Iwaki,JP,37.05,140.8833,79.77,68,99,3.0,overcast clouds
393,Colares,PT,38.7992,-9.4469,65.34,78,98,21.0,overcast clouds
394,Srednekolymsk,RU,67.45,153.6833,69.91,21,17,11.45,few clouds
395,Pangkalanbuun,ID,-2.6833,111.6167,86.2,67,49,3.36,scattered clouds
396,Erenhot,CN,43.6475,111.9767,81.91,23,82,4.65,broken clouds
397,Nchelenge,ZM,-9.3451,28.734,60.57,59,0,4.32,clear sky
398,Lingao,CN,19.9103,109.6859,87.66,67,80,3.49,broken clouds
399,Iralaya,HN,15.0,-83.2333,75.42,90,100,6.26,overcast clouds
400,Hay River,CA,60.8156,-115.7999,51.78,71,75,12.66,broken clouds
401,Waingapu,ID,-9.6567,120.2641,85.42,64,37,15.84,scattered clouds
402,Palafrugell,ES,41.9174,3.1631,69.35,49,18,3.47,few clouds
403,Cape Canaveral,US,28.4058,-80.6048,84.07,79,0,8.05,clear sky
404,Kidal,ML,18.4411,1.4078,82.49,48,100,23.89,overcast clouds
405,Nyagan,RU,62.1406,65.3936,65.73,53,10,8.25,clear sky
406,Inirida,CO,3.8653,-67.9239,72.27,98,100,1.23,overcast clouds
407,Aklavik,CA,68.2191,-135.0107,63.32,32,9,11.56,clear sky
408,Barcelos,PT,41.5388,-8.6151,68.14,92,53,6.64,broken clouds
409,Beecher,US,43.09,-83.6944,83.88,70,0,5.75,clear sky
410,Paredon,MX,16.0333,-93.8667,79.79,79,100,3.8,overcast clouds
411,Wawa,NG,9.9022,4.4192,73.6,90,94,3.47,moderate rain
412,Buchanan,LR,5.8808,-10.0467,76.05,89,100,9.33,light rain
413,Tarko-Sale,RU,64.9225,77.785,61.27,83,100,16.06,light rain
414,Kanye,BW,-24.9667,25.3327,35.6,63,0,5.66,clear sky
415,The Valley,AI,18.217,-63.0578,82.26,84,100,18.41,overcast clouds
416,Bay City,US,43.5945,-83.8889,84.31,66,0,9.22,haze
417,Khuzdar,PK,27.7384,66.6434,82.56,54,0,7.11,clear sky
418,Jalu,LY,29.0331,21.5482,74.5,58,0,5.39,clear sky
419,Tawau,MY,4.2498,117.8871,82.53,82,91,3.58,overcast clouds
420,Dakar,SN,14.6937,-17.4441,78.93,83,40,4.61,scattered clouds
421,Finschhafen,PG,-6.6024,147.8681,85.39,67,42,9.95,scattered clouds
422,Shenjiamen,CN,29.9576,122.298,74.61,86,100,11.12,overcast clouds
423,Kamenka,RU,51.3223,42.7678,56.91,98,100,6.2,light rain
424,Amboasary,MG,-25.0333,46.3833,68.2,67,32,6.55,light rain
425,Laiyang,CN,36.9758,120.7136,80.69,51,90,10.4,overcast clouds
426,Udachnyy,RU,66.4167,112.4,62.46,41,15,8.48,few clouds
427,Pushkino,RU,56.0172,37.8667,59.09,78,44,7.94,scattered clouds
428,Juneau,US,58.3019,-134.4197,66.2,100,40,10.36,scattered clouds
429,Dzhebariki-Khaya,RU,62.2167,135.8,60.35,80,96,5.93,light rain
430,Novoagansk,RU,61.9449,76.6625,60.42,91,99,14.27,light rain
431,Zhangye,CN,38.9342,100.4517,89.01,8,99,2.17,overcast clouds
432,Tura,IN,25.5198,90.2201,74.1,96,100,5.99,heavy intensity rain
433,Kajaani,FI,64.2273,27.7285,48.25,93,100,11.5,light rain
434,Road Town,VG,18.4167,-64.6167,82.49,79,100,18.77,overcast clouds
435,Nishihara,JP,26.1842,127.7558,78.46,91,100,11.5,heavy intensity shower rain
436,Umea,SE,63.8284,20.2597,54.91,76,9,8.05,clear sky
437,Opunake,NZ,-39.4556,173.8583,59.85,82,90,20.31,overcast clouds
438,Owasso,US,36.2695,-95.8547,85.12,75,75,10.36,broken clouds
439,Cooma,AU,-36.2333,149.1333,48.52,75,91,9.48,overcast clouds
440,Benguela,AO,-12.5763,13.4055,65.93,60,0,2.86,clear sky
441,Padang,ID,-0.9492,100.3543,84.25,66,79,3.78,broken clouds
442,Bousso,TD,10.4795,16.7117,82.04,54,38,4.65,scattered clouds
443,Ballina,AU,-28.8667,153.5667,72.01,54,0,8.75,clear sky
444,Alhadas,PT,40.1861,-8.7906,66.13,95,58,3.98,broken clouds
445,Kalmunai,LK,7.4167,81.8167,79.77,75,100,3.2,moderate rain
446,Camacha,PT,33.0833,-16.3333,63.82,72,40,9.22,scattered clouds
447,Kambove,CD,-10.8764,26.5969,53.13,59,4,3.38,clear sky
448,Lazaro Cardenas,MX,17.9583,-102.2,80.65,83,100,15.19,overcast clouds
449,Nago,JP,26.5881,127.9761,79.23,88,100,8.14,moderate rain
450,Les Herbiers,FR,46.8667,-1.0167,62.31,79,72,6.51,broken clouds
451,Tomatlan,MX,19.9333,-105.25,75.79,94,100,1.36,overcast clouds
452,Qinzhou,CN,21.95,108.6167,81.9,85,100,9.35,overcast clouds
453,Bilibino,RU,68.0546,166.4372,58.15,25,0,3.58,clear sky
454,Atar,MR,20.5169,-13.0499,91.65,32,4,6.15,clear sky
455,Planaltina,BR,-15.4528,-47.6142,62.55,77,20,4.85,few clouds
456,Pathein,MM,16.7833,94.7333,85.95,69,100,5.97,overcast clouds
457,Oyama,JP,36.3,139.8,72.59,53,100,5.01,overcast clouds
458,Manokwari,ID,-0.8667,134.0833,83.84,69,54,10.07,broken clouds
459,Tarakan,ID,3.3,117.6333,78.3,89,20,4.61,heavy intensity rain
460,Punta Alta,AR,-38.8759,-62.0736,46.92,91,0,3.15,clear sky
461,Coahuayana,MX,18.7333,-103.6833,78.91,89,100,2.95,overcast clouds
462,Rodrigues Alves,BR,-7.738,-72.6509,70.0,80,2,0.54,clear sky
463,Cayenne,GF,4.9333,-52.3333,79.09,1,0,0.0,clear sky
464,Elizabeth City,US,36.2946,-76.2511,75.22,72,0,3.44,clear sky
465,Acarau,BR,-2.8856,-40.12,74.84,85,11,12.24,few clouds
466,Lubango,AO,-14.9172,13.4925,53.08,19,40,0.96,scattered clouds
467,Matara,LK,5.9485,80.5353,80.96,82,100,10.69,overcast clouds
468,Mayskiy,RU,47.6931,40.1025,60.21,91,70,10.74,broken clouds
469,Marawi,PH,7.9986,124.2928,82.71,54,18,4.63,few clouds
470,Ponta Delgada,PT,37.7333,-25.6667,63.5,77,20,4.61,few clouds
471,Maragogi,BR,-9.0122,-35.2225,74.66,89,42,10.47,light rain
472,Ornskoldsvik,SE,63.2909,18.7153,52.81,74,98,4.5,overcast clouds
473,Tucuman,AR,-26.8241,-65.2226,46.4,81,96,5.75,overcast clouds
474,Namatanai,PG,-3.6667,152.4333,83.37,73,49,9.6,light rain
475,Kardla,EE,58.9978,22.7492,59.05,87,0,3.44,clear sky
476,Northam,GB,51.0333,-4.2167,50.61,94,82,1.97,broken clouds
477,Raga,SS,8.4596,25.678,68.85,96,65,3.44,light rain
478,Sidi Ali,DZ,36.0998,0.4206,80.65,43,94,4.97,overcast clouds
479,Soyo,AO,-6.1349,12.3689,71.83,85,68,6.69,broken clouds
480,San Quintin,MX,30.4833,-115.95,63.45,79,0,5.17,clear sky
481,Alofi,NU,-19.0595,-169.9187,80.49,78,40,10.36,scattered clouds
482,Roald,NO,62.5833,6.1333,56.16,100,75,4.61,light intensity drizzle
483,Kruisfontein,ZA,-34.0033,24.7314,45.88,79,32,7.38,scattered clouds
484,Tuatapere,NZ,-46.1333,167.6833,47.84,87,100,12.44,light rain
485,Monte Patria,CL,-30.6919,-70.9467,50.61,81,0,1.21,clear sky
486,Yeppoon,AU,-23.1333,150.7333,76.78,69,8,6.96,clear sky
487,Minsk Mazowiecki,PL,52.1794,21.5725,58.53,90,68,5.95,broken clouds
488,Troutdale,US,45.5393,-122.3873,66.99,65,100,1.01,overcast clouds
489,Kysyl-Syr,RU,63.8986,122.7617,68.68,47,52,7.78,broken clouds
490,Okhotsk,RU,59.3833,143.3,49.17,80,94,6.33,overcast clouds
491,Koumac,NC,-20.5667,164.2833,80.2,68,34,4.83,scattered clouds
492,Eucaliptus,BO,-17.5833,-67.5167,38.71,55,0,3.78,clear sky
493,Ambilobe,MG,-13.2,49.05,66.15,93,0,3.62,clear sky
494,Hirara,JP,24.8,125.2833,82.67,83,75,9.22,light rain
495,Tiznit,MA,29.5833,-9.5,67.26,69,46,2.89,scattered clouds
496,Simao,CN,22.7886,100.9748,69.26,92,100,3.18,overcast clouds
497,Balakhta,RU,55.38,91.6,66.47,81,61,4.7,moderate rain
498,Olavarria,AR,-36.8927,-60.3225,43.02,84,99,6.24,overcast clouds
499,Callaguip,PH,18.0714,120.4867,87.82,79,75,6.91,broken clouds
500,Herat,AF,34.5,62.0,87.78,16,0,8.55,clear sky
501,Gbarnga,LR,6.9956,-9.4722,71.46,99,100,4.16,light rain
502,Mocuba,MZ,-16.8392,36.9856,62.37,79,0,1.48,clear sky
503,Puqi,CN,29.7167,113.8833,88.56,57,86,5.86,overcast clouds
504,Mantua,IT,45.1667,10.7833,70.84,79,0,1.01,clear sky
505,Sydney,AU,-33.8679,151.2073,69.55,46,20,9.22,few clouds
506,Denpasar,ID,-8.65,115.2167,83.86,79,20,2.3,few clouds
507,Tottori,JP,35.5,134.2333,73.47,78,40,8.05,scattered clouds
508,Thai Binh,VN,20.45,106.3333,87.82,68,100,8.84,overcast clouds
509,Gladstone,AU,-23.85,151.25,75.13,50,75,6.91,broken clouds
510,Lompoc,US,34.6391,-120.4579,66.34,79,0,20.0,clear sky
511,Las Cruces,US,32.3123,-106.7783,92.16,16,0,3.44,clear sky
512,Jardim,BR,-21.4803,-56.1381,65.21,63,0,3.87,clear sky
513,Birecik,TR,37.0294,37.9903,72.61,50,0,4.14,clear sky
514,Florianopolis,BR,-27.6146,-48.5012,59.7,97,75,5.75,broken clouds
515,Grojec,PL,51.8625,20.8676,58.51,86,64,5.5,broken clouds
516,Datong,CN,40.0936,113.2914,78.67,36,54,6.15,broken clouds
517,Itarema,BR,-2.9248,-39.9167,74.43,84,10,11.61,clear sky
518,Lure,FR,47.75,6.5,60.17,94,0,4.61,clear sky
519,Houma,US,29.5958,-90.7195,84.0,83,0,3.44,clear sky
520,Oistins,BB,13.0667,-59.5333,82.49,83,40,19.57,scattered clouds
521,Aksum,ET,14.1245,38.7244,63.36,49,81,3.44,broken clouds
522,College,US,64.8569,-147.8028,71.58,50,75,8.05,broken clouds
523,Krupina,SK,48.3554,19.0647,54.95,83,45,1.99,scattered clouds
524,Chimoio,MZ,-19.1164,33.4833,60.66,82,20,4.12,few clouds
525,Tevaitoa,PF,-16.7833,-151.5,80.44,73,9,15.23,clear sky
526,Lorengau,PG,-2.0226,147.2712,85.57,67,99,10.04,overcast clouds
527,Springdale,US,36.1867,-94.1288,80.78,82,75,5.75,broken clouds
528,Tabou,CI,4.423,-7.3528,74.89,93,100,10.65,moderate rain
529,Porto Real,BR,-22.4197,-44.2903,54.21,94,0,1.21,clear sky
530,Iquique,CL,-20.2208,-70.1431,60.84,83,64,3.49,broken clouds
531,Weinan,CN,34.5036,109.5089,95.11,23,0,5.77,clear sky
532,Beaverlodge,CA,55.2166,-119.4361,65.55,70,99,5.93,overcast clouds
533,Huarmey,PE,-10.0681,-78.1522,62.37,82,9,12.55,clear sky
534,Chaman,PK,30.9236,66.4512,87.82,9,0,3.29,clear sky
535,Klaksvik,FO,62.2266,-6.589,49.12,96,97,6.38,overcast clouds
536,Bari,IT,41.1177,16.8512,73.87,67,0,5.75,clear sky
537,Yarmouth,US,41.7057,-70.2286,61.47,91,0,1.99,clear sky
538,Srandakan,ID,-7.9386,110.2506,84.31,68,46,3.04,scattered clouds
539,Nemuro,JP,43.3236,145.575,53.13,99,100,17.81,overcast clouds
540,Bafq,IR,31.6128,55.4107,89.11,9,0,4.7,clear sky
541,Kudat,MY,6.8837,116.8477,89.53,66,20,6.91,few clouds
542,Steamboat Springs,US,40.485,-106.8317,65.79,47,0,4.61,clear sky
543,Mehamn,NO,71.0357,27.8492,39.15,100,75,11.5,broken clouds
544,Necochea,AR,-38.5473,-58.7368,48.27,88,100,4.14,overcast clouds
545,Wajima,JP,37.4,136.9,77.68,73,75,18.41,broken clouds
546,Port Moresby,PG,-9.4431,147.1797,89.02,66,75,11.5,haze
547,Bassano,CA,50.7834,-112.4685,58.23,78,79,17.25,broken clouds
548,Sunland Park,US,31.7965,-106.58,95.63,24,0,5.75,smoke
549,Syracuse,IT,37.0881,15.2792,69.39,60,3,5.99,clear sky
550,Edegem,BE,51.1566,4.445,58.87,79,100,4.61,overcast clouds
551,Hofn,IS,64.2539,-15.2082,48.54,81,6,10.92,clear sky
552,Key Largo,US,25.0865,-80.4473,82.99,72,83,13.82,broken clouds
553,Olinda,BR,-8.0089,-34.8553,74.93,94,75,2.3,broken clouds
554,Monrovia,LR,6.3005,-10.7969,76.93,86,100,12.77,light rain
555,Kasongo,CD,-4.45,26.6667,68.45,68,36,1.92,scattered clouds
556,Sidrolandia,BR,-20.9319,-54.9614,64.58,66,1,6.55,clear sky
557,Sungairaya,ID,0.7,108.9,82.63,79,71,3.24,broken clouds
558,Gazanjyk,TM,39.2446,55.5154,86.77,25,53,4.0,broken clouds
559,Lae,PG,-6.7221,146.9847,84.87,59,24,8.79,few clouds
560,Frontino,CO,6.7801,-76.1288,61.83,98,100,0.18,overcast clouds
561,Dubbo,AU,-32.25,148.6167,60.93,59,75,9.22,broken clouds
562,Sechura,PE,-5.5569,-80.8222,63.09,79,2,13.89,clear sky
563,Seclin,FR,50.55,3.0333,58.64,79,29,3.44,scattered clouds
564,Banjar,ID,-8.19,114.9675,83.37,80,92,2.48,overcast clouds
565,Mangrol,IN,21.1167,70.1167,86.2,70,34,11.68,scattered clouds
566,Mandiana,GN,10.6333,-8.6833,75.74,79,82,6.8,broken clouds
567,Kapit,MY,2.0167,112.9333,89.19,63,65,1.43,broken clouds
568,Leshukonskoye,RU,64.8989,45.7622,61.81,88,100,8.7,overcast clouds
569,Te Anau,NZ,-45.4167,167.7167,46.11,92,100,3.6,overcast clouds
570,Lufilufi,WS,-13.8745,-171.5986,85.78,77,19,18.68,light rain
571,Telsiai,LT,55.9814,22.2472,52.25,91,99,7.83,overcast clouds
572,Quelimane,MZ,-17.8786,36.8883,67.95,94,100,2.3,fog
573,Vila,PT,42.0304,-8.1588,59.88,84,37,4.03,scattered clouds
574,Victoria,HK,22.2855,114.1577,86.97,85,100,17.0,light rain
575,Havelock,US,34.8791,-76.9013,78.78,83,3,6.55,clear sky
576,Timiryazevskoye,RU,56.49,84.8769,67.86,66,29,8.59,scattered clouds
577,Biabou,VC,13.2,-61.1333,79.81,85,100,20.31,overcast clouds
578,Napier,NZ,-39.4833,176.9167,63.28,51,74,5.01,broken clouds
579,Mahibadhoo,MV,3.7833,72.9667,83.28,72,87,8.03,overcast clouds
580,Tubuala,PA,9.5167,-79.0333,78.53,85,58,9.48,broken clouds
581,Quebec,CA,46.8123,-71.2145,66.54,84,75,4.61,broken clouds
582,Hambantota,LK,6.1241,81.1185,79.14,94,75,4.61,light rain
583,Flin Flon,CA,54.7682,-101.865,51.78,80,64,3.44,broken clouds
584,Areka,ET,7.0667,37.7,59.04,91,82,1.39,broken clouds
585,Port Hawkesbury,CA,45.6169,-61.3485,51.58,93,0,5.99,clear sky
586,Salihorsk,BY,52.7876,27.5415,52.9,90,24,4.88,few clouds
587,Malayal,PH,7.208,121.942,87.6,74,75,5.99,broken clouds
588,Bayangol,RU,50.6977,103.4656,57.65,94,100,1.92,overcast clouds
589,Hosur,IN,12.7167,77.8167,73.31,62,97,11.5,overcast clouds
590,Mormugao,IN,15.4,73.8,82.78,72,86,4.07,overcast clouds
591,Cody,US,44.5263,-109.0565,62.26,30,0,1.01,clear sky
592,Dunedin,NZ,-45.8742,170.5036,52.81,59,94,13.0,overcast clouds
593,Dwarka,IN,22.2394,68.9678,86.29,71,50,15.57,scattered clouds
594,Calabozo,VE,8.9242,-67.4293,73.45,90,87,1.79,overcast clouds
595,Tirat Karmel,IL,32.7617,34.9719,72.59,87,3,7.25,clear sky
596,North Bend,US,43.4065,-124.2243,59.92,91,100,8.05,overcast clouds
597,Oranjemund,NA,-28.55,16.4333,56.8,44,45,15.37,scattered clouds
598,Dvinskoy,RU,62.1535,45.1175,58.15,79,33,8.75,scattered clouds
599,Lancaster,US,40.2504,-76.2499,74.7,72,100,8.05,overcast clouds
600,Nioro,GM,13.35,-15.75,78.91,75,60,6.96,broken clouds
601,San Angelo,US,31.4638,-100.437,89.82,40,0,13.8,clear sky
602,Ariquemes,BR,-9.9133,-63.0408,73.42,90,100,0.31,overcast clouds
603,Trincomalee,LK,8.5711,81.2335,83.82,73,98,16.15,overcast clouds
604,Egvekinot,RU,66.3167,-179.1667,32.14,99,100,4.07,snow
605,Portland,US,45.5234,-122.6762,67.6,64,100,1.01,overcast clouds
606,Pochutla,MX,15.7432,-96.4661,73.51,92,100,2.28,overcast clouds
607,Lakhisarai,IN,25.1768,86.0932,95.25,40,80,8.68,broken clouds
608,Guatire,VE,10.4762,-66.5427,71.22,98,78,2.66,broken clouds
609,Omsukchan,RU,62.5333,155.8,58.57,44,55,7.67,broken clouds
610,Meulaboh,ID,4.1363,96.1285,80.73,73,100,5.77,overcast clouds
611,Pitimbu,BR,-7.4706,-34.8086,73.99,83,35,5.06,scattered clouds
612,Kanelovskaya,RU,46.5908,39.19,63.91,73,88,13.31,overcast clouds
613,Preobrazheniye,RU,42.9019,133.9064,60.04,77,100,10.2,overcast clouds
614,Akdagmadeni,TR,39.6603,35.8836,54.64,85,8,5.46,clear sky
615,Luderitz,NA,-26.6481,15.1594,61.41,37,2,14.72,clear sky
616,Yerbogachen,RU,61.2767,108.0108,76.6,39,15,5.23,few clouds
617,Leh,IN,34.1667,77.5833,55.24,46,70,4.16,broken clouds
618,Pereslavl-Zalesskiy,RU,56.7393,38.8563,56.66,77,46,10.2,scattered clouds
619,Poquoson,US,37.1224,-76.3458,75.99,64,20,8.05,few clouds
620,Lagunas,PE,-5.2269,-75.6753,69.35,80,4,1.36,clear sky
621,Soligalich,RU,59.0778,42.2864,55.11,84,89,8.16,overcast clouds
622,Mamou,GN,10.5,-12.0,67.68,98,100,3.53,overcast clouds
623,Walvis Bay,NA,-22.9575,14.5053,52.75,46,0,10.36,clear sky
624,Xichang,CN,27.8964,102.2634,69.08,75,96,2.3,overcast clouds
625,Coquimbo,CL,-29.9533,-71.3436,55.13,94,100,4.61,overcast clouds
626,Jaisalmer,IN,26.9147,70.9181,88.86,51,0,23.17,clear sky
627,Yueyang,CN,29.3333,113.0919,86.99,59,100,14.85,overcast clouds
628,Odweyne,SO,9.4092,45.064,73.49,51,35,20.8,scattered clouds
629,Sorong,ID,-0.8833,131.25,82.76,73,16,5.61,few clouds
630,Zhezkazgan,KZ,47.8043,67.7144,73.38,35,0,4.47,clear sky
631,Byron Bay,AU,-28.65,153.6167,73.94,48,0,4.72,clear sky
632,Ambovombe,MG,-25.1667,46.0833,67.55,67,42,8.72,scattered clouds
633,Verkhnevilyuysk,RU,63.4453,120.3167,69.93,52,56,6.46,light rain
634,Borogontsy,RU,62.6683,131.1683,73.24,38,7,5.75,clear sky
635,Gamba,GA,-2.65,10.0,71.46,91,61,4.59,broken clouds
636,Halifax,CA,44.6453,-63.5724,53.49,86,0,4.61,clear sky
637,Caucaia,BR,-3.7361,-38.6531,78.75,77,75,5.75,broken clouds
638,Havoysund,NO,70.9963,24.6622,41.23,85,100,16.33,overcast clouds
639,Kirando,TZ,-7.4167,30.6,70.9,61,11,10.58,few clouds
640,Sao Jose De Ribamar,BR,-2.5619,-44.0542,80.98,78,89,6.62,overcast clouds
641,Kichmengskiy Gorodok,RU,59.9816,45.7854,58.98,77,84,8.84,broken clouds
642,Machali,CL,-34.1833,-70.6667,46.0,83,11,1.23,few clouds
643,Shahreza,IR,32.0339,51.8794,78.66,11,0,4.21,clear sky
644,Acapulco,MX,16.8634,-99.8901,75.02,100,100,10.36,overcast clouds
645,Folldal,NO,62.1325,9.9968,46.81,93,100,1.81,light rain
646,Maniitsoq,GL,65.4167,-52.9,35.64,73,77,1.3,broken clouds
647,Caibarien,CU,22.5206,-79.4669,74.52,84,46,11.86,scattered clouds
648,Lyubashivka,UA,47.8372,30.2598,56.46,70,41,5.26,scattered clouds
649,Samarai,PG,-10.6167,150.6667,80.78,83,63,11.86,heavy intensity rain
650,Bilma,NE,18.6853,12.9164,85.32,38,100,5.55,overcast clouds
651,Kirksville,US,40.1948,-92.5833,82.35,69,40,6.91,scattered clouds
652,Nexo,DK,55.0607,15.1306,53.69,83,100,6.06,overcast clouds
653,San Carlos De Bariloche,AR,-41.1456,-71.3082,31.24,93,20,2.3,few clouds
654,Puerto Colombia,CO,10.9878,-74.9547,78.89,83,92,5.99,overcast clouds
655,Jambi,ID,-1.6,103.6167,84.6,68,100,3.09,overcast clouds
656,Warora,IN,20.2333,79.0,89.22,54,98,7.38,overcast clouds
657,Prelouc,CZ,50.0398,15.5603,62.91,85,0,4.61,clear sky
658,Kassala,SD,15.451,36.4,80.49,52,100,17.05,overcast clouds
659,Kaduqli,SD,11.0167,29.7167,75.13,66,75,6.22,light rain
660,Worland,US,44.0169,-107.9554,65.88,39,0,4.61,clear sky
661,Gotsu,JP,35.0,132.2167,74.46,74,10,17.9,clear sky
662,Itaiba,BR,-8.9475,-37.4228,65.17,94,99,8.95,overcast clouds
663,Krasnyy Chikoy,RU,50.3643,108.7512,80.24,37,99,1.28,light rain
664,Poya,NC,-21.35,165.15,80.06,68,77,5.97,broken clouds
665,Najran,SA,17.4924,44.1277,75.85,16,88,2.42,overcast clouds
666,Severodvinsk,RU,64.5635,39.8302,59.11,88,94,7.94,overcast clouds
667,Strezhevoy,RU,60.7333,77.5889,62.15,83,100,5.5,light rain
668,Pabna,BD,24.0,89.25,88.83,69,100,17.38,overcast clouds
669,Hirado,JP,33.3597,129.5531,72.97,86,25,12.82,scattered clouds
670,Mut,TR,36.6439,33.4389,75.56,45,0,5.41,clear sky
671,Bud,US,39.447,-86.1758,84.22,76,27,10.71,scattered clouds
672,Koungou,YT,-12.7336,45.2042,73.11,94,0,5.75,light rain
673,Batticaloa,LK,7.7102,81.6924,80.22,76,100,7.02,light rain
674,Gainsborough,GB,53.3833,-0.7667,57.87,82,37,5.75,scattered clouds
675,Boyolangu,ID,-8.1181,111.8935,84.72,70,36,4.21,light rain
676,Igarka,RU,67.4667,86.5833,70.18,59,100,11.61,overcast clouds
677,Maraa,BR,-1.8333,-65.3667,70.2,99,9,1.57,clear sky
678,Kibuye,RW,-2.0597,29.3482,63.37,75,87,1.72,overcast clouds
679,Springfield,US,37.2153,-93.2982,81.03,80,20,9.22,few clouds
680,Riyadh,SA,24.6877,46.7219,82.54,14,2,3.74,clear sky
681,Port Hedland,AU,-20.3167,118.5667,84.25,21,22,14.97,few clouds
682,Coihaique,CL,-45.5752,-72.0662,41.61,75,40,3.44,scattered clouds
683,Vechta,DE,52.7167,8.2833,54.99,84,96,5.21,overcast clouds
684,Aljezur,PT,37.3191,-8.8033,61.9,92,77,2.33,broken clouds
685,Bereda,ES,43.2686,-7.5406,63.43,85,98,1.79,overcast clouds
686,La Serena,CL,-29.9078,-71.2542,54.91,94,100,4.61,overcast clouds
687,Calama,CL,-22.4667,-68.9333,39.69,24,0,18.41,clear sky
688,Atocha,BO,-20.9333,-66.2333,34.52,20,1,8.86,clear sky
689,Ishikari,JP,43.2397,141.3539,64.81,94,75,16.11,light rain
690,Mecca,SA,21.4267,39.8261,84.7,33,0,6.04,clear sky
691,Marsh Harbour,BS,26.5412,-77.0636,80.69,74,100,6.29,overcast clouds
692,Guanica,PR,17.9716,-66.908,82.06,83,100,8.16,overcast clouds
693,Okha,RU,53.5739,142.9478,50.74,84,100,7.85,overcast clouds
694,Phonhong,LA,18.5007,102.4166,84.45,72,92,1.21,overcast clouds
695,Honiara,SB,-9.4333,159.95,85.53,65,76,8.68,broken clouds
696,Kuloy,RU,61.0305,42.4925,56.82,75,96,9.37,overcast clouds
697,Kerema,PG,-7.9631,145.7785,84.07,74,58,9.15,broken clouds
698,Kanniyakumari,IN,8.0833,77.5667,83.71,70,100,16.58,overcast clouds
699,Ucluelet,CA,48.9329,-125.5528,56.08,86,100,5.08,overcast clouds
700,Teguldet,RU,57.3064,88.1667,64.08,84,100,5.59,light rain
701,Nidau,CH,47.1255,7.2403,67.71,88,11,3.44,few clouds
702,Chabahar,IR,25.2919,60.643,84.15,76,7,7.4,clear sky
703,Mount Isa,AU,-20.7333,139.5,76.77,27,47,12.66,scattered clouds
704,Gigmoto,PH,13.7796,124.39,87.71,65,76,7.23,broken clouds
705,Sussex,US,41.1834,-74.6663,66.81,68,20,0.0,few clouds
706,Agadez,NE,19.75,10.25,85.73,32,100,8.93,overcast clouds
707,Moratuwa,LK,6.773,79.8816,78.82,83,100,6.42,moderate rain
708,Fare,PF,-16.7,-151.0167,80.47,71,2,16.26,clear sky
709,Ostersund,SE,63.1792,14.6357,50.45,93,75,8.05,broken clouds
710,Alice Springs,AU,-23.7,133.8833,71.15,32,1,8.05,clear sky
711,Tucumcari,US,35.1717,-103.725,89.44,18,0,11.5,clear sky
712,Kuliyapitiya,LK,7.4688,80.0401,78.48,77,99,5.84,overcast clouds
713,Yenagoa,NG,4.9247,6.2642,73.4,97,74,1.5,moderate rain
714,Sunrise Manor,US,36.2111,-115.0731,98.11,5,0,6.91,clear sky
